{"version": 0.6, "generator": "Overpass API 0.7.60.6 e2dc3e5b", "osm3s": {"timestamp_osm_base": "2023-06-12T11:19:39Z", "copyright": "The data included in this document is from www.openstreetmap.org. The data is made available under ODbL."}, "elements": [{"type": "node", "id": 4397390098, "lat": 28.1255926, "lon": 75.6977128, "tags": {"highway": "bus_stop", "name": "Ghardhana Kalan", "name:hi": "Ghardhana Kalan"}}, {"type": "node", "id": 4706408050, "lat": 28.2567055, "lon": 75.4180448, "tags": {"highway": "bus_stop"}}, {"type": "node", "id": 4706408051, "lat": 28.2595557, "lon": 75.4195903, "tags": {"highway": "bus_stop", "name:en": "Lalpur"}}, {"type": "node", "id": 4706408052, "lat": 28.2695916, "lon": 75.4247928, "tags": {"highway": "bus_stop"}}, {"type": "node", "id": 4706417719, "lat": 28.2594492, "lon": 75.4195202, "tags": {"highway": "bus_stop", "name:en": "Lalpur"}}, {"type": "node", "id": 4706417720, "lat": 28.2608977, "lon": 75.4202661, "tags": {"highway": "bus_stop", "name:en": "pipal bus stand Lalpur"}}, {"type": "node", "id": 5922413886, "lat": 28.1173362, "lon": 75.3841079, "tags": {"highway": "bus_stop", "name:en": "Bus stand to Mandawa", "name:fr": "Arr\u00eat de bus pour aller \u00e0 Mandawa"}}, {"type": "node", "id": 8133524460, "lat": 28.1302375, "lon": 75.4133309, "tags": {"bus": "yes", "highway": "bus_stop", "name": "private bus stop", "public_transport": "platform"}}, {"type": "node", "id": 8133526550, "lat": 28.1349952, "lon": 75.4273108, "tags": {"bus": "yes", "highway": "bus_stop", "name": "schooln bus stop", "public_transport": "platform"}}]}