{"version": 0.6, "generator": "Overpass API 0.7.60.6 e2dc3e5b", "osm3s": {"timestamp_osm_base": "2023-06-12T13:38:07Z", "copyright": "The data included in this document is from www.openstreetmap.org. The data is made available under ODbL."}, "elements": [{"type": "node", "id": 315733720, "lat": 26.8947988, "lon": 75.8612266, "tags": {"bus": "yes", "bus_routes": "27", "highway": "bus_stop", "name": "Ghat ki guni", "public_transport": "platform"}}, {"type": "node", "id": 316420529, "lat": 26.944099, "lon": 75.8395104, "tags": {"bus": "yes", "highway": "bus_stop", "name": "Ramgarh Mod", "public_transport": "platform"}}, {"type": "node", "id": 316649829, "lat": 27.0150482, "lon": 75.7693282, "tags": {"bus": "yes", "highway": "bus_stop", "name": "Harmada", "public_transport": "platform"}}, {"type": "node", "id": 316742974, "lat": 26.9123361, "lon": 75.8161415, "tags": {"bus": "yes", "highway": "bus_stop", "name": "Maharani College", "public_transport": "platform"}}, {"type": "node", "id": 316943439, "lat": 26.9244477, "lon": 75.8186598, "tags": {"bus": "yes", "highway": "bus_stop", "name": "Choti Chaupar", "public_transport": "platform"}}, {"type": "node", "id": 316957401, "lat": 26.9249636, "lon": 75.8072078, "tags": {"bus": "yes", "highway": "bus_stop", "name": "Chandpole", "public_transport": "platform"}}, {"type": "node", "id": 321194335, "lat": 26.8969848, "lon": 75.8105061, "tags": {"bus": "yes", "highway": "bus_stop", "name": "RBI", "public_transport": "platform"}}, {"type": "node", "id": 1405214578, "lat": 26.8846963, "lon": 75.7287008, "tags": {"bus": "yes", "bus_routes": "18, 26", "highway": "bus_stop", "name": "Power House", "public_transport": "platform"}}, {"type": "node", "id": 1467000141, "lat": 26.9018816, "lon": 75.7938981, "tags": {"bus": "yes", "bus_routes": "14, 10B, Mini 38", "highway": "bus_stop", "name": "Bais Godam circle", "public_transport": "platform"}}, {"type": "node", "id": 1751224304, "lat": 26.9142683, "lon": 75.7934114, "tags": {"bus": "yes", "highway": "bus_stop", "name": "Hathroi", "public_transport": "platform"}}, {"type": "node", "id": 1812532483, "lat": 26.9246247, "lon": 75.8190096, "tags": {"bus": "yes", "highway": "bus_stop", "name": "Choti Chopad", "public_transport": "platform"}}, {"type": "node", "id": 1812540125, "lat": 26.9153191, "lon": 75.8169299, "tags": {"bus": "yes", "highway": "bus_stop", "name": "Ajmeri Gate", "public_transport": "platform"}}, {"type": "node", "id": 1812540126, "lat": 26.8991808, "lon": 75.8121466, "tags": {"bus": "yes", "highway": "bus_stop", "name": "Narayan Singh Circle", "public_transport": "platform"}}, {"type": "node", "id": 2105397604, "lat": 26.8782632, "lon": 75.7159898, "tags": {"bus": "yes", "highway": "bus_stop", "name": "Kamla Nehru", "public_transport": "platform"}}, {"type": "node", "id": 2105397654, "lat": 26.8881782, "lon": 75.7370806, "tags": {"bus": "yes", "highway": "bus_stop", "name": "200ft Bypass", "network": "JCTSL", "public_transport": "platform"}}, {"type": "node", "id": 2105397685, "lat": 26.8882616, "lon": 75.7374418, "tags": {"bus": "yes", "bus_routes": "7, 9B", "highway": "bus_stop", "name": "Hirapura (200ft Bypass)", "public_transport": "platform"}}, {"type": "node", "id": 2105397707, "lat": 26.8890532, "lon": 75.7373521, "tags": {"bus": "yes", "highway": "bus_stop", "name": "Hirapura (200ft bypass)", "public_transport": "platform"}}, {"type": "node", "id": 2105397838, "lat": 26.8933872, "lon": 75.7461945, "tags": {"bus": "yes", "highway": "bus_stop", "name": "DCM Tagore Nagar", "public_transport": "platform"}}, {"type": "node", "id": 2105397854, "lat": 26.8949767, "lon": 75.7334549, "tags": {"bus": "yes", "highway": "bus_stop", "name": "Tagore Nagar", "network": "JCTSL", "public_transport": "platform"}}, {"type": "node", "id": 2105800435, "lat": 26.895833, "lon": 75.751122, "tags": {"bus": "yes", "highway": "bus_stop", "name": "Kings Road", "public_transport": "platform"}}, {"type": "node", "id": 2105800556, "lat": 26.9027248, "lon": 75.7861663, "tags": {"bus": "yes", "bus_routes": "14, 10B, Mini 38", "highway": "bus_stop", "name": "Ram mandir", "public_transport": "platform"}}, {"type": "node", "id": 2105800673, "lat": 26.9143693, "lon": 75.7933792, "tags": {"bus": "yes", "highway": "bus_stop", "name": "Hathroi", "public_transport": "platform"}}, {"type": "node", "id": 2106256089, "lat": 26.9153051, "lon": 75.8242565, "tags": {"bus": "yes", "bus_routes": "3, 3B, 14, 27, 32, AC 1, AC 2, AC 5, Mini 34, Mini 38", "highway": "bus_stop", "name": "Sanganeri Gate", "public_transport": "platform"}}, {"type": "node", "id": 2106256191, "lat": 26.9303085, "lon": 75.8017904, "tags": {"bus": "yes", "highway": "bus_stop", "name": "Power House", "public_transport": "platform"}}, {"type": "node", "id": 2106291593, "lat": 26.9040357, "lon": 75.8444409, "tags": {"bus": "yes", "bus_routes": "27, 10B", "highway": "bus_stop", "name": "Transport Nagar", "public_transport": "platform"}}, {"type": "node", "id": 2106355852, "lat": 26.9437193, "lon": 75.7471628, "tags": {"bus": "yes", "highway": "bus_stop", "name": "Boring Chauraha", "public_transport": "platform"}}, {"type": "node", "id": 2106355947, "lat": 26.9506521, "lon": 75.7715169, "tags": {"bus": "yes", "highway": "bus_stop", "name": "Dher ke Balaji", "public_transport": "platform", "shelter": "yes"}}, {"type": "node", "id": 2106392969, "lat": 26.9466897, "lon": 75.8402911, "tags": {"bus": "yes", "highway": "bus_stop", "name": "Karbala", "public_transport": "platform"}}, {"type": "node", "id": 2393622938, "lat": 26.914925, "lon": 75.742984, "tags": {"bus": "yes", "bus_routes": "14", "highway": "bus_stop", "name": "Vaishali Circle", "public_transport": "platform"}}, {"type": "node", "id": 2393625634, "lat": 26.9113432, "lon": 75.7296181, "tags": {"bus": "yes", "highway": "bus_stop", "name": "Karni Palace", "public_transport": "platform"}}, {"type": "node", "id": 2830752722, "lat": 26.8852177, "lon": 75.7301679, "tags": {"bus": "yes", "highway": "bus_stop", "name": "Power House", "public_transport": "platform"}}, {"type": "node", "id": 2891846126, "lat": 26.8841622, "lon": 75.7401215, "tags": {"bus": "yes", "bus_routes": "7, 9B", "highway": "bus_stop", "name": "Vardhaman Nagar", "public_transport": "platform"}}, {"type": "node", "id": 3258246733, "lat": 26.90816, "lon": 75.8042984, "tags": {"highway": "bus_stop", "name": "Statue circle"}}, {"type": "node", "id": 3266671377, "lat": 26.9164568, "lon": 75.8186365, "tags": {"bus": "yes", "bus_routes": "3, 3B, 14", "highway": "bus_stop", "name": "Ajmeri Gate", "public_transport": "platform"}}, {"type": "node", "id": 3659486234, "lat": 26.8908981, "lon": 75.7410373, "tags": {"bus": "yes", "highway": "bus_stop", "name": "Chitrakoot Vaishali Nagar", "public_transport": "platform"}}, {"type": "node", "id": 3747102055, "lat": 27.0142199, "lon": 75.7531364, "tags": {"bus": "yes", "highway": "bus_stop", "public_transport": "platform"}}, {"type": "node", "id": 3783217169, "lat": 26.8571892, "lon": 75.795152, "tags": {"bus": "yes", "highway": "bus_stop", "name": "Mahaveer Nagar", "public_transport": "platform"}}, {"type": "node", "id": 3787809626, "lat": 26.8572519, "lon": 75.7953196, "tags": {"bus": "yes", "highway": "bus_stop", "name": "Mahaveer Nagar", "public_transport": "platform"}}, {"type": "node", "id": 3788703296, "lat": 26.8986707, "lon": 75.7659022, "tags": {"bus": "yes", "highway": "bus_stop", "name": "Sushilpura", "public_transport": "platform"}}, {"type": "node", "id": 3788703316, "lat": 26.9016359, "lon": 75.7722181, "tags": {"bus": "yes", "highway": "bus_stop", "name": "Ram Nagar Extension", "public_transport": "platform"}}, {"type": "node", "id": 3788703320, "lat": 26.901838, "lon": 75.7721152, "tags": {"bus": "yes", "highway": "bus_stop", "name": "Ram Nagar Extension", "public_transport": "platform"}}, {"type": "node", "id": 3788703333, "lat": 26.9029558, "lon": 75.7743791, "tags": {"bus": "yes", "highway": "bus_stop", "name": "Sodala Thana", "public_transport": "platform"}}, {"type": "node", "id": 3788703352, "lat": 26.9060211, "lon": 75.777057, "tags": {"bus": "yes", "highway": "bus_stop", "name": "ESIC Hospital", "public_transport": "platform"}}, {"type": "node", "id": 3788703354, "lat": 26.9062401, "lon": 75.7769599, "tags": {"bus": "yes", "highway": "bus_stop", "name": "ESIC Hospital", "public_transport": "platform"}}, {"type": "node", "id": 3788703677, "lat": 26.909479, "lon": 75.7809175, "tags": {"bus": "yes", "highway": "bus_stop", "name": "Civil Lines", "public_transport": "platform"}}, {"type": "node", "id": 3788703679, "lat": 26.9096335, "lon": 75.7817687, "tags": {"bus": "yes", "highway": "bus_stop", "name": "Civil Lines", "public_transport": "platform"}}, {"type": "node", "id": 3788831315, "lat": 26.8934416, "lon": 75.7460432, "tags": {"bus": "yes", "highway": "bus_stop", "name": "DCM - Tagore Nagar", "public_transport": "platform"}}, {"type": "node", "id": 3788831329, "lat": 26.8959123, "lon": 75.7510463, "tags": {"bus": "yes", "highway": "bus_stop", "name": "Kings Road", "public_transport": "platform"}}, {"type": "node", "id": 3788831347, "lat": 26.8984628, "lon": 75.7566259, "tags": {"bus": "yes", "highway": "bus_stop", "name": "Purani Chungi", "public_transport": "platform"}}, {"type": "node", "id": 3788831358, "lat": 26.8986966, "lon": 75.7582472, "tags": {"bus": "yes", "bus_routes": "14, 26, Mini 38", "highway": "bus_stop", "name": "DCM", "public_transport": "platform"}}, {"type": "node", "id": 3788852978, "lat": 26.9108995, "lon": 75.7845438, "tags": {"bus": "yes", "highway": "bus_stop", "name": "Majdur Nagar", "public_transport": "platform"}}, {"type": "node", "id": 3788853454, "lat": 26.9110785, "lon": 75.7843382, "tags": {"bus": "yes", "highway": "bus_stop", "name": "Majdur Nagar", "public_transport": "platform"}}, {"type": "node", "id": 4030822336, "lat": 26.9213177, "lon": 75.7953542, "tags": {"highway": "bus_stop", "name": "Jai Ambay bus travel agency"}}, {"type": "node", "id": 4030838010, "lat": 26.8881633, "lon": 75.7362708, "tags": {"bus": "yes", "bus_routes": "18, 26", "highway": "bus_stop", "name": "200ft Bypass", "public_transport": "platform"}}, {"type": "node", "id": 4427307090, "lat": 26.9399601, "lon": 75.7312005, "tags": {"amenity": "atm", "highway": "bus_stop"}}, {"type": "node", "id": 4727706596, "lat": 26.9168716, "lon": 75.815879, "tags": {"bus": "yes", "highway": "bus_stop", "name": "Ajmeri Gate", "public_transport": "platform"}}, {"type": "node", "id": 5403055418, "lat": 26.9228478, "lon": 75.8266029, "tags": {"bus": "yes", "highway": "bus_stop", "name": "Badi Chaupar", "public_transport": "platform"}}, {"type": "node", "id": 5481705863, "lat": 26.8908198, "lon": 75.7410772, "tags": {"bus": "yes", "highway": "bus_stop", "name": "Chitrakoot Vaishali Nagar", "public_transport": "platform"}}, {"type": "node", "id": 5481842553, "lat": 26.8997366, "lon": 75.8123853, "tags": {"bus": "yes", "bus_routes": "3, 3A, 3B, 3C, 6A, 7, 9A, 11, 16, 23, 28, 32, AC 1, AC 2, AC 5, 27, AC3, 13A, 8A, 14", "highway": "bus_stop", "name": "Narayan Singh Circle", "public_transport": "platform"}}, {"type": "node", "id": 5482393984, "lat": 26.9182068, "lon": 75.8002081, "tags": {"bus": "yes", "highway": "bus_stop", "name": "Amrapur Darbar", "public_transport": "platform"}}, {"type": "node", "id": 5482676844, "lat": 26.9416594, "lon": 75.7623808, "tags": {"bus": "yes", "bus_routes": "14, 18", "highway": "bus_stop", "name": "Jothwara Pulia", "public_transport": "platform"}}, {"type": "node", "id": 6285691985, "lat": 26.9139486, "lon": 75.7909439, "tags": {"bus": "yes", "highway": "bus_stop", "name:en": "ajmeri pulia", "public_transport": "platform"}}, {"type": "node", "id": 6285692885, "lat": 26.9212989, "lon": 75.795611, "tags": {"highway": "bus_stop", "name:en": "Gujarat Travels"}}, {"type": "node", "id": 6531980320, "lat": 26.9175231, "lon": 75.8012368, "tags": {"bus": "yes", "highway": "bus_stop", "name": "Shaheed Smarak", "public_transport": "platform"}}, {"type": "node", "id": 6968230703, "lat": 26.920953, "lon": 75.730597, "tags": {"bus": "yes", "bus_routes": "11", "highway": "bus_stop", "name": "Panchawala Pulia", "public_transport": "platform"}}, {"type": "node", "id": 6976242961, "lat": 26.9056433, "lon": 75.7289947, "tags": {"bus": "yes", "departures_board": "no", "highway": "bus_stop", "name": "Gandhi path pulia", "public_transport": "platform", "shelter": "no"}}, {"type": "node", "id": 6976242963, "lat": 26.895145, "lon": 75.733884, "tags": {"bus": "yes", "departures_board": "no", "highway": "bus_stop", "name": "Hirapura Puliya", "public_transport": "platform", "wikidata": "Q6124121", "wikipedia": "en:Jaipur City Transport Services Limited"}}, {"type": "node", "id": 6976254795, "lat": 26.8626435, "lon": 75.7958578, "tags": {"bus": "yes", "bus_routes": "3, 3A, 3B, 3C, 7, 9A, 11, 16, 23, 28, 32, AC 1, AC 2, AC 5,", "highway": "bus_stop", "name": "Gopalpura Mod", "public_transport": "platform"}}, {"type": "node", "id": 6976254796, "lat": 26.8641574, "lon": 75.7960839, "tags": {"bus": "yes", "bus_routes": "3, 3A, 3B, 3C, 7, 9A, 11, 16, 23, 28, 32, AC 1, AC 2, AC 5, 27, AC 3", "highway": "bus_stop", "name": "Gopalpura mod", "public_transport": "platform"}}, {"type": "node", "id": 6976254797, "lat": 26.8650299, "lon": 75.7964033, "tags": {"bus": "yes", "bus_routes": "3, 3A, 3B, 3C, 7, 9A, 11, 16, 23, 28, 32, AC 1, AC 2, AC 5, 27, AC3", "highway": "bus_stop", "name": "Gopalpura Mod", "public_transport": "platform"}}, {"type": "node", "id": 6976254798, "lat": 26.8717995, "lon": 75.7973087, "tags": {"bus": "yes", "bus_routes": "3, 3A, 3B, 3C, 7, 9A, 11, 16, 23, 28, 32, AC 1, AC 2, AC 5, 27, AC3", "highway": "bus_stop", "name": "Gandhi Nagar Railway Station", "public_transport": "platform"}}, {"type": "node", "id": 6976254799, "lat": 26.87174, "lon": 75.7971889, "tags": {"bus": "yes", "bus_routes": "3, 3A, 3B, 3C, 7, 9A, 11, 16, 23, 28, 32, AC 1, AC 2, AC 5, 27, AC3", "highway": "bus_stop", "name": "Gandhi Nagar Railway Station", "public_transport": "platform"}}, {"type": "node", "id": 6976254800, "lat": 26.8794685, "lon": 75.7989073, "tags": {"bus": "yes", "bus_routes": "3, 3A, 3B, 3C, 6A, 7, 9A, 11, 16, 23, 28, 32, AC 1, AC 2, AC 5, 27, AC3, 13A", "highway": "bus_stop", "name": "Tonk Fatak", "public_transport": "platform"}}, {"type": "node", "id": 6976254801, "lat": 26.8795752, "lon": 75.7990905, "tags": {"bus": "yes", "bus_routes": "3, 3A, 3B, 3C, 6A, 7, 9A, 11, 16, 23, 28, 32, AC 1, AC 2, AC 5, 27, AC3, 13A", "highway": "bus_stop", "name": "Tonk Fatak", "public_transport": "platform"}}, {"type": "node", "id": 6976254802, "lat": 26.8811631, "lon": 75.7995794, "tags": {"bus": "yes", "bus_routes": "3, 3A, 3B, 3C, 6A, 7, 9A, 11, 16, 23, 28, 32, AC 1, AC 2, AC 5, 27, AC3, 13A", "highway": "bus_stop", "name": "Laxmi Mandir Tiraha", "public_transport": "platform"}}, {"type": "node", "id": 6976254803, "lat": 26.8811609, "lon": 75.7997058, "tags": {"bus": "yes", "bus_routes": "3, 3A, 3B, 3C, 6A, 7, 9A, 11, 16, 23, 28, 32, AC 1, AC 2, AC 5, 27, AC3, 13A", "highway": "bus_stop", "name": "Laxmi Mandir Tiraha", "public_transport": "platform", "shelter": "yes"}}, {"type": "node", "id": 6976254804, "lat": 26.8835509, "lon": 75.8007607, "tags": {"bus": "yes", "bus_routes": "3, 3A, 3B, 3C, 6A, 7, 9A, 11, 16, 23, 28, 32, AC 1, AC 2, AC 5, 27, AC3, 13A", "highway": "bus_stop", "name": "Nehru Palace", "public_transport": "platform"}}, {"type": "node", "id": 6976254805, "lat": 26.8851158, "lon": 75.8017054, "tags": {"bus": "yes", "bus_routes": "3, 3A, 3B, 3C, 6A, 7, 9A, 11, 16, 23, 28, 32, AC 1, AC 2, AC 5, 27, AC3, 13A", "highway": "bus_stop", "name": "Nehru Garden", "public_transport": "platform"}}, {"type": "node", "id": 6976254806, "lat": 26.8874749, "lon": 75.8027538, "tags": {"bus": "yes", "bus_routes": "3, 3A, 3B, 3C, 6A, 7, 9A, 11, 16, 23, 28, 32, AC 1, AC 2, AC 5, 27, AC3, 13A, 8A", "highway": "bus_stop", "name": "Gandhi Nagar Mod", "public_transport": "platform"}}, {"type": "node", "id": 6976254807, "lat": 26.8868412, "lon": 75.8025794, "tags": {"bus": "yes", "bus_routes": "3, 3A, 3B, 3C, 6A, 7, 9A, 11, 16, 23, 28, 32, AC 1, AC 2, AC 5, 27, AC3, 13A, 8A", "highway": "bus_stop", "name": "Gandhi Nagar Mod", "public_transport": "platform"}}, {"type": "node", "id": 6976254808, "lat": 26.8919108, "lon": 75.8060906, "tags": {"bus": "yes", "bus_routes": "3, 3A, 3B, 3C, 6A, 7, 9A, 11, 16, 23, 28, 32, AC 1, AC 2, AC 5, 27, AC3, 13A, 8A", "highway": "bus_stop", "name": "Nagar Nigam Lal kothi", "public_transport": "platform"}}, {"type": "node", "id": 6976254809, "lat": 26.8916284, "lon": 75.8060242, "tags": {"bus": "yes", "bus_routes": "3, 3A, 3B, 3C, 6A, 7, 9A, 11, 16, 23, 28, 32, AC 1, AC 2, AC 5, 27, AC3, 13A, 8A", "highway": "bus_stop", "name": "Nagar Nigam Lal kothi", "public_transport": "platform"}}, {"type": "node", "id": 6976254810, "lat": 26.8944404, "lon": 75.8084395, "tags": {"bus": "yes", "bus_routes": "3, 3A, 3B, 3C, 6A, 7, 9A, 11, 16, 23, 28, 32, AC 1, AC 2, AC 5, 27, AC3, 13A, 8A", "highway": "bus_stop", "name": "Rambagh Circle", "public_transport": "platform"}}, {"type": "node", "id": 6976254811, "lat": 26.8941137, "lon": 75.8079616, "tags": {"bus": "yes", "bus_routes": "3, 3A, 3B, 3C, 6A, 7, 9A, 11, 16, 23, 28, 32, AC 1, AC 2, AC 5, 27, AC3, 13A, 8A", "highway": "bus_stop", "name": "Rambagh Circle", "public_transport": "platform"}}, {"type": "node", "id": 6976254812, "lat": 26.8950009, "lon": 75.8076287, "tags": {"bus": "yes", "bus_routes": "10B, 14", "highway": "bus_stop", "name": "Rambagh Circle", "public_transport": "platform"}}, {"type": "node", "id": 6976254813, "lat": 26.8969521, "lon": 75.8103258, "tags": {"bus": "yes", "bus_routes": "3, 3A, 3B, 3C, 6A, 7, 9A, 11, 16, 23, 28, 32, AC 1, AC 2, AC 5, 27, AC3, 13A, 8A, 14", "highway": "bus_stop", "name": "RBI", "public_transport": "platform"}}, {"type": "node", "id": 6976254819, "lat": 26.9051529, "lon": 75.814687, "tags": {"bus": "yes", "highway": "bus_stop", "name": "SMS hospital", "public_transport": "platform"}}, {"type": "node", "id": 6976254821, "lat": 26.9117553, "lon": 75.815876, "tags": {"bus": "yes", "highway": "bus_stop", "name": "Maharani College", "public_transport": "platform"}}, {"type": "node", "id": 6976254823, "lat": 26.9161667, "lon": 75.817055, "tags": {"bus": "yes", "bus_routes": "3, 3A, 3B, 27, 32, AC 1, AC 5", "highway": "bus_stop", "name": "Ajmeri Gate", "public_transport": "platform"}}, {"type": "node", "id": 6978725497, "lat": 26.9150327, "lon": 75.7299855, "tags": {"bus": "yes", "bus_routes": "7, 14, Mini 38", "highway": "bus_stop", "name": "Bajri Mandi", "public_transport": "platform", "wikidata": "Q6124121", "wikipedia": "en:Jaipur City Transport Services Limited"}}, {"type": "node", "id": 6978725499, "lat": 26.9212936, "lon": 75.726763, "tags": {"bus": "yes", "bus_routes": "11", "highway": "bus_stop", "name": "Panchawala", "public_transport": "platform"}}, {"type": "node", "id": 6978725500, "lat": 26.9146331, "lon": 75.7381254, "tags": {"bus": "yes", "bus_routes": "14,", "highway": "bus_stop", "name": "National Handloom", "public_transport": "platform"}}, {"type": "node", "id": 6978725502, "lat": 26.898994, "lon": 75.8167254, "tags": {"bus": "yes", "bus_routes": "7", "highway": "bus_stop", "name": "Teenmurti circle", "public_transport": "platform"}}, {"type": "node", "id": 6978725503, "lat": 26.8987582, "lon": 75.8167024, "tags": {"bus": "yes", "bus_routes": "7", "highway": "bus_stop", "name": "Teenmurti circle", "public_transport": "platform"}}, {"type": "node", "id": 6978725504, "lat": 26.8996848, "lon": 75.8195644, "tags": {"bus": "yes", "bus_routes": "7", "highway": "bus_stop", "name": "Moti Dungri circle", "public_transport": "platform"}}, {"type": "node", "id": 6978725505, "lat": 26.8966396, "lon": 75.8271072, "tags": {"bus": "yes", "bus_routes": "7", "highway": "bus_stop", "name": "Raja Park", "public_transport": "platform"}}, {"type": "node", "id": 6978725507, "lat": 26.9029926, "lon": 75.837072, "tags": {"bus": "yes", "bus_routes": "7, Mini 38", "highway": "bus_stop", "name": "Mental Hospital", "public_transport": "platform"}}, {"type": "node", "id": 6978725510, "lat": 26.9045227, "lon": 75.8443328, "tags": {"bus": "yes", "bus_routes": "14, 32, AC 5", "highway": "bus_stop", "name": "Transport Nagar", "public_transport": "platform"}}, {"type": "node", "id": 6978725512, "lat": 26.9014592, "lon": 75.8437164, "tags": {"bus": "yes", "highway": "bus_stop", "name": "Ghat ki Guni Circle", "public_transport": "platform"}}, {"type": "node", "id": 6978725515, "lat": 26.8927562, "lon": 75.8678625, "tags": {"bus": "yes", "bus_routes": "14, 32", "highway": "bus_stop", "name": "Dayal Hospital", "public_transport": "platform"}}, {"type": "node", "id": 6978725516, "lat": 26.8919996, "lon": 75.866979, "tags": {"bus": "yes", "bus_routes": "27", "highway": "bus_stop", "name": "Dayal Hospital", "public_transport": "platform"}}, {"type": "node", "id": 6978725520, "lat": 26.9097761, "lon": 75.8374766, "tags": {"bus": "yes", "bus_routes": "3, 14, 27, 32, AC 5, Mini 38", "highway": "bus_stop", "name": "Amratpuri", "public_transport": "platform"}}, {"type": "node", "id": 6978725522, "lat": 26.9134878, "lon": 75.8330205, "tags": {"bus": "yes", "bus_routes": "3, 14, 27, 32, AC 5, Mini 38", "highway": "bus_stop", "name": "Ghat Darwaza", "public_transport": "platform"}}, {"type": "node", "id": 6978739446, "lat": 26.9027246, "lon": 75.7744115, "tags": {"bus": "yes", "bus_routes": "14, 26, Mini 38", "highway": "bus_stop", "name": "Sodala Thana", "public_transport": "platform"}}, {"type": "node", "id": 6978739447, "lat": 26.8985199, "lon": 75.7654892, "tags": {"bus": "yes", "bus_routes": "14, 26, Mini 38", "highway": "bus_stop", "name": "Sushilpura", "public_transport": "platform"}}, {"type": "node", "id": 6978739450, "lat": 26.8988405, "lon": 75.7588343, "tags": {"bus": "yes", "bus_routes": "14, Mini 38", "highway": "bus_stop", "name": "Purani Chungi", "public_transport": "platform"}}, {"type": "node", "id": 6978739451, "lat": 26.9058332, "lon": 75.752927, "tags": {"bus": "yes", "bus_routes": "14, Mini 38", "highway": "bus_stop", "name": "Vijay Dwar", "public_transport": "platform"}}, {"type": "node", "id": 6978739453, "lat": 26.9112084, "lon": 75.7436397, "tags": {"bus": "yes", "bus_routes": "14, Mini 38, 18", "highway": "bus_stop", "name": "Gupta Store", "public_transport": "platform"}}, {"type": "node", "id": 6978739454, "lat": 26.9113676, "lon": 75.7390981, "tags": {"bus": "yes", "bus_routes": "14, Mini 38", "highway": "bus_stop", "name": "Nursery Circle", "public_transport": "platform"}}, {"type": "node", "id": 6979547396, "lat": 26.9286957, "lon": 75.7486358, "tags": {"bus": "yes", "highway": "bus_stop", "name": "Khatipura", "public_transport": "platform"}}, {"type": "node", "id": 6979547397, "lat": 26.9228787, "lon": 75.7458875, "tags": {"bus": "yes", "bus_routes": "11", "highway": "bus_stop", "name": "Khatipura Mod", "public_transport": "platform"}}, {"type": "node", "id": 6979547399, "lat": 26.9132866, "lon": 75.743644, "tags": {"bus": "yes", "bus_routes": "18", "highway": "bus_stop", "name": "Vaibhav tower", "public_transport": "platform"}}, {"type": "node", "id": 6979547400, "lat": 26.9058326, "lon": 75.7390254, "tags": {"bus": "yes", "bus_routes": "18", "highway": "bus_stop", "name": "Global hospital", "public_transport": "platform"}}, {"type": "node", "id": 6979547401, "lat": 26.8976342, "lon": 75.7390816, "tags": {"bus": "yes", "bus_routes": "18", "highway": "bus_stop", "name": "Chitrakoot", "public_transport": "platform"}}, {"type": "node", "id": 6979547402, "lat": 26.8928811, "lon": 75.7397435, "tags": {"bus": "yes", "bus_routes": "18", "highway": "bus_stop", "name": "Tagore Nagar", "public_transport": "platform"}}, {"type": "node", "id": 6979547405, "lat": 26.8776028, "lon": 75.7151958, "tags": {"bus": "yes", "bus_routes": "18, 26", "highway": "bus_stop", "name": "Kamla Nehru", "public_transport": "platform"}}, {"type": "node", "id": 6979547406, "lat": 26.8778513, "lon": 75.7170819, "tags": {"bus": "yes", "bus_routes": "32", "highway": "bus_stop", "name": "Narayan Vihar", "public_transport": "platform"}}, {"type": "node", "id": 6979547417, "lat": 26.8986036, "lon": 75.8002444, "tags": {"bus": "yes", "bus_routes": "14, 10B, Mini 38", "highway": "bus_stop", "name": "High court circle", "public_transport": "platform"}}, {"type": "node", "id": 6979547418, "lat": 26.8924446, "lon": 75.8137198, "tags": {"bus": "yes", "bus_routes": "10B", "highway": "bus_stop", "name": "JDA circle", "public_transport": "platform"}}, {"type": "node", "id": 6979547419, "lat": 26.8892566, "lon": 75.8218391, "tags": {"bus": "yes", "bus_routes": "10B", "highway": "bus_stop", "name": "LBS College Mod", "public_transport": "platform"}}, {"type": "node", "id": 6980012967, "lat": 26.9015977, "lon": 75.7300062, "tags": {"bus": "yes", "highway": "bus_stop", "name": "Chitrakoot stadium", "public_transport": "platform"}}, {"type": "node", "id": 7041913558, "lat": 26.9228574, "lon": 75.744715, "tags": {"bus": "yes", "highway": "bus_stop", "name": "Khatipura Mod", "public_transport": "platform"}}, {"type": "node", "id": 7041913559, "lat": 26.9056287, "lon": 75.7428388, "tags": {"bus": "yes", "bus_routes": "14, Mini 38", "highway": "bus_stop", "name": "Gautam Marg", "public_transport": "platform"}}, {"type": "node", "id": 7069865244, "lat": 26.9152529, "lon": 75.7294447, "tags": {"bus": "yes", "highway": "bus_stop", "name": "Bajri Mandi", "network": "JCTSL", "public_transport": "platform"}}, {"type": "node", "id": 7069865245, "lat": 26.9112316, "lon": 75.7290402, "tags": {"bus": "yes", "highway": "bus_stop", "name": "Karni Palace", "network": "JCTSL", "public_transport": "platform"}}, {"type": "node", "id": 7069865246, "lat": 26.9056023, "lon": 75.7284148, "tags": {"bus": "yes", "highway": "bus_stop", "name": "Gandhi Path Pulia", "network": "JCTSL", "public_transport": "platform"}}, {"type": "node", "id": 7069865251, "lat": 26.8624115, "lon": 75.7955857, "tags": {"bus": "yes", "highway": "bus_stop", "name": "Gopalpura Mod", "public_transport": "platform"}}, {"type": "node", "id": 7069865252, "lat": 26.9028688, "lon": 75.8372395, "tags": {"bus": "yes", "highway": "bus_stop", "name": "Mental Hospital", "public_transport": "platform"}}, {"type": "node", "id": 7083055189, "lat": 26.8986253, "lon": 75.7564593, "tags": {"bus": "yes", "highway": "bus_stop", "name": "Purani Chungi", "public_transport": "platform"}}, {"type": "node", "id": 7083055210, "lat": 26.9122651, "lon": 75.7874073, "tags": {"bus": "yes", "highway": "bus_stop", "name": "Civil Lines Chauraha", "public_transport": "platform"}}, {"type": "node", "id": 7083055211, "lat": 26.9123527, "lon": 75.787329, "tags": {"bus": "yes", "highway": "bus_stop", "name": "Civil Lines Chauraha", "public_transport": "platform"}}, {"type": "node", "id": 7083055213, "lat": 26.9155999, "lon": 75.7971825, "tags": {"bus": "yes", "highway": "bus_stop", "name": "Shalimar", "public_transport": "platform"}}, {"type": "node", "id": 7083055218, "lat": 26.9249077, "lon": 75.807044, "tags": {"bus": "yes", "highway": "bus_stop", "name": "Chandpole", "public_transport": "platform"}}, {"type": "node", "id": 7177171785, "lat": 26.92243, "lon": 75.7989933, "tags": {"highway": "bus_stop", "name": "Bus pour pushcar"}}, {"type": "node", "id": 7299085345, "lat": 26.8698145, "lon": 75.800472, "tags": {"bus": "yes", "highway": "bus_stop", "name": "Bajaj Nagar Enclave", "public_transport": "platform"}}, {"type": "node", "id": 8035833208, "lat": 26.9228801, "lon": 75.8274289, "tags": {"bus": "yes", "highway": "bus_stop", "name": "Badi Chopad", "public_transport": "platform"}}, {"type": "node", "id": 8039165440, "lat": 26.916051, "lon": 75.820333, "tags": {"bus": "yes", "highway": "bus_stop", "name": "New Gate Circle", "public_transport": "platform"}}, {"type": "node", "id": 8039165441, "lat": 26.9158205, "lon": 75.8208977, "tags": {"bus": "yes", "highway": "bus_stop", "name": "New Gate Circle", "public_transport": "platform"}}, {"type": "node", "id": 8039165456, "lat": 26.9227816, "lon": 75.8269836, "tags": {"bus": "yes", "highway": "bus_stop", "public_transport": "platform"}}, {"type": "node", "id": 8039924156, "lat": 26.9237773, "lon": 75.8231508, "tags": {"bus": "yes", "highway": "bus_stop", "name": "Tripolia Gate", "public_transport": "platform"}}, {"type": "node", "id": 8039924157, "lat": 26.923847, "lon": 75.8223385, "tags": {"bus": "yes", "highway": "bus_stop", "name": "Tripolia Gate", "public_transport": "platform"}}, {"type": "node", "id": 8041563554, "lat": 27.0289388, "lon": 75.7687892, "tags": {"bus": "yes", "highway": "bus_stop", "name": "Todi", "public_transport": "platform", "shelter": "no"}}, {"type": "node", "id": 8041563555, "lat": 27.028728, "lon": 75.7689264, "tags": {"bus": "yes", "highway": "bus_stop", "name": "Todi Bheem", "public_transport": "platform", "shelter": "no"}}, {"type": "node", "id": 8041563556, "lat": 27.0153956, "lon": 75.7692983, "tags": {"bus": "yes", "highway": "bus_stop", "name": "Harmada", "public_transport": "platform"}}, {"type": "node", "id": 8041563561, "lat": 27.0120211, "lon": 75.7692418, "tags": {"bus": "yes", "highway": "bus_stop", "name": "Nindar mod", "public_transport": "platform"}}, {"type": "node", "id": 8041563562, "lat": 27.0118587, "lon": 75.7693344, "tags": {"bus": "yes", "highway": "bus_stop", "name": "Nindar mod", "public_transport": "platform"}}, {"type": "node", "id": 8041563564, "lat": 27.0063058, "lon": 75.7705125, "tags": {"bus": "yes", "highway": "bus_stop", "name": "Jodrla", "public_transport": "platform"}}, {"type": "node", "id": 8041563565, "lat": 27.0061599, "lon": 75.770602, "tags": {"bus": "yes", "highway": "bus_stop", "name": "Jodrla", "public_transport": "platform"}}, {"type": "node", "id": 8041563582, "lat": 26.9971457, "lon": 75.7708979, "tags": {"bus": "yes", "highway": "bus_stop", "name": "Road Number 14", "public_transport": "platform"}}, {"type": "node", "id": 8041563583, "lat": 26.9973991, "lon": 75.7706076, "tags": {"bus": "yes", "highway": "bus_stop", "name": "14 Number", "public_transport": "platform"}}, {"type": "node", "id": 8041577919, "lat": 26.9920287, "lon": 75.7722917, "tags": {"bus": "yes", "highway": "bus_stop", "name": "12 Number", "public_transport": "platform"}}, {"type": "node", "id": 8041577920, "lat": 26.9924901, "lon": 75.7719769, "tags": {"bus": "yes", "highway": "bus_stop", "name": "Road Number 12", "public_transport": "platform"}}, {"type": "node", "id": 8041578131, "lat": 26.9871014, "lon": 75.7730561, "tags": {"bus": "yes", "highway": "bus_stop", "name": "9 Number", "public_transport": "platform"}}, {"type": "node", "id": 8041578132, "lat": 26.9867976, "lon": 75.7732947, "tags": {"bus": "yes", "highway": "bus_stop", "name": "9 Number", "public_transport": "platform"}}, {"type": "node", "id": 8041578134, "lat": 26.9830998, "lon": 75.7741996, "tags": {"bus": "yes", "highway": "bus_stop", "name": "8 Number", "public_transport": "platform", "shelter": "yes"}}, {"type": "node", "id": 8041578135, "lat": 26.982519, "lon": 75.774146, "tags": {"bus": "yes", "highway": "bus_stop", "name": "8 Number", "public_transport": "platform", "shelter": "yes"}}, {"type": "node", "id": 8041972715, "lat": 26.9794231, "lon": 75.7741427, "tags": {"bus": "yes", "highway": "bus_stop", "name": "6 Number", "public_transport": "platform", "shelter": "yes"}}, {"type": "node", "id": 8041972716, "lat": 26.9790145, "lon": 75.7737455, "tags": {"bus": "yes", "highway": "bus_stop", "name": "6 Number", "public_transport": "platform", "shelter": "yes"}}, {"type": "node", "id": 8041972747, "lat": 26.9747022, "lon": 75.7723269, "tags": {"bus": "yes", "highway": "bus_stop", "name": "2 Number", "public_transport": "platform"}}, {"type": "node", "id": 8041972748, "lat": 26.9743134, "lon": 75.7721469, "tags": {"bus": "yes", "highway": "bus_stop", "name": "2 Number", "public_transport": "platform"}}, {"type": "node", "id": 8041972749, "lat": 26.9712097, "lon": 75.7724771, "tags": {"bus": "yes", "highway": "bus_stop", "name": "1 Number", "public_transport": "platform"}}, {"type": "node", "id": 8041972750, "lat": 26.9705377, "lon": 75.7722951, "tags": {"bus": "yes", "highway": "bus_stop", "name": "1 Number", "public_transport": "platform"}}, {"type": "node", "id": 8041984308, "lat": 26.9668494, "lon": 75.7724744, "tags": {"bus": "yes", "highway": "bus_stop", "name": "Alka Cinema", "public_transport": "platform"}}, {"type": "node", "id": 8041984309, "lat": 26.965996, "lon": 75.7721204, "tags": {"bus": "yes", "highway": "bus_stop", "name": "Alka Cinema", "public_transport": "platform"}}, {"type": "node", "id": 8041984333, "lat": 26.9622821, "lon": 75.7717623, "tags": {"bus": "yes", "highway": "bus_stop", "name": "Vidhyadhar Nagar Depot", "public_transport": "platform"}}, {"type": "node", "id": 8041984334, "lat": 26.9621395, "lon": 75.7715479, "tags": {"bus": "yes", "highway": "bus_stop", "name": "Vidhyadhar Nagar Depot", "public_transport": "platform"}}, {"type": "node", "id": 8041984339, "lat": 26.9594528, "lon": 75.7715799, "tags": {"bus": "yes", "highway": "bus_stop", "name": "Khetan Hospital", "public_transport": "platform"}}, {"type": "node", "id": 8041984340, "lat": 26.958983, "lon": 75.7713707, "tags": {"bus": "yes", "highway": "bus_stop", "name": "Khetan Hospital", "public_transport": "platform"}}, {"type": "node", "id": 8041984341, "lat": 26.9515487, "lon": 75.7715061, "tags": {"bus": "yes", "highway": "bus_stop", "name": "Dher Ke Balaji", "public_transport": "platform", "shelter": "yes"}}, {"type": "node", "id": 8041984344, "lat": 26.9467346, "lon": 75.7732831, "tags": {"bus": "yes", "highway": "bus_stop", "name": "Bhavani Niketan", "public_transport": "platform", "shelter": "yes"}}, {"type": "node", "id": 8041984345, "lat": 26.9456526, "lon": 75.7731222, "tags": {"bus": "yes", "highway": "bus_stop", "name": "Bhavani Niketan", "public_transport": "platform", "shelter": "yes"}}, {"type": "node", "id": 8041984346, "lat": 26.9401902, "lon": 75.7745598, "tags": {"bus": "yes", "highway": "bus_stop", "name": "Chomu Puliya", "public_transport": "platform"}}, {"type": "node", "id": 8041984347, "lat": 26.940794, "lon": 75.7735594, "tags": {"bus": "yes", "highway": "bus_stop", "name": "Chomu Pulia", "public_transport": "platform"}}, {"type": "node", "id": 8041984348, "lat": 26.9397897, "lon": 75.7780293, "tags": {"bus": "yes", "highway": "bus_stop", "name": "Ambabadi", "public_transport": "platform"}}, {"type": "node", "id": 8041984350, "lat": 26.9400145, "lon": 75.7771897, "tags": {"bus": "yes", "highway": "bus_stop", "name": "Ambabadi", "public_transport": "platform"}}, {"type": "node", "id": 8041984383, "lat": 26.938584, "lon": 75.7879767, "tags": {"bus": "yes", "highway": "bus_stop", "name": "Panipech", "public_transport": "platform"}}, {"type": "node", "id": 8041984384, "lat": 26.9386014, "lon": 75.7877577, "tags": {"bus": "yes", "highway": "bus_stop", "name": "Panipech", "public_transport": "platform"}}, {"type": "node", "id": 8041984446, "lat": 26.9356339, "lon": 75.7926306, "tags": {"bus": "yes", "highway": "bus_stop", "name": "City Plaza", "public_transport": "platform"}}, {"type": "node", "id": 8041984447, "lat": 26.9358176, "lon": 75.7921574, "tags": {"bus": "yes", "highway": "bus_stop", "name": "City Plaza", "public_transport": "platform"}}, {"type": "node", "id": 8041984478, "lat": 26.9328943, "lon": 75.7975489, "tags": {"bus": "yes", "highway": "bus_stop", "name": "Pital Factory", "public_transport": "platform"}}, {"type": "node", "id": 8041984479, "lat": 26.9330601, "lon": 75.7969822, "tags": {"bus": "yes", "highway": "bus_stop", "name": "Pital Factory", "public_transport": "platform"}}, {"type": "node", "id": 8041984481, "lat": 26.9306029, "lon": 75.8015415, "tags": {"bus": "yes", "highway": "bus_stop", "name": "Power House", "public_transport": "platform"}}, {"type": "node", "id": 8041984482, "lat": 26.9290045, "lon": 75.8037171, "tags": {"bus": "yes", "highway": "bus_stop", "name": "Kanti Nagar", "public_transport": "platform"}}, {"type": "node", "id": 8041984483, "lat": 26.9287779, "lon": 75.8038897, "tags": {"bus": "yes", "highway": "bus_stop", "name": "Kanti Nagar", "public_transport": "platform"}}, {"type": "node", "id": 8042126718, "lat": 26.9266796, "lon": 75.8091334, "tags": {"bus": "yes", "highway": "bus_stop", "name": "Chandpole", "public_transport": "platform"}}, {"type": "node", "id": 8042126719, "lat": 26.9213335, "lon": 75.8344956, "tags": {"bus": "yes", "highway": "bus_stop", "name": "Ramganj", "public_transport": "platform"}}, {"type": "node", "id": 8042126720, "lat": 26.9213064, "lon": 75.8342678, "tags": {"bus": "yes", "highway": "bus_stop", "name": "Ramganj", "public_transport": "platform"}}, {"type": "node", "id": 8042126721, "lat": 26.9192175, "lon": 75.8444703, "tags": {"bus": "yes", "highway": "bus_stop", "name": "Surajpole Gate", "public_transport": "platform"}}, {"type": "node", "id": 8042166840, "lat": 26.9183395, "lon": 75.8487008, "tags": {"bus": "yes", "highway": "bus_stop", "name": "Galta Gate", "public_transport": "platform"}}, {"type": "node", "id": 8043797908, "lat": 26.9283191, "lon": 75.8282641, "tags": {"bus": "yes", "highway": "bus_stop", "name": "Chandi ki Taksal", "public_transport": "platform"}}, {"type": "node", "id": 8043797909, "lat": 26.9282981, "lon": 75.8283541, "tags": {"bus": "yes", "highway": "bus_stop", "public_transport": "platform"}}, {"type": "node", "id": 8043797914, "lat": 26.929438, "lon": 75.8306444, "tags": {"bus": "yes", "highway": "bus_stop", "name": "Subhash Chowk", "public_transport": "platform"}}, {"type": "node", "id": 8043797915, "lat": 26.9292783, "lon": 75.8309236, "tags": {"bus": "yes", "highway": "bus_stop", "name": "Subhash Chowk", "public_transport": "platform"}}, {"type": "node", "id": 8043797916, "lat": 26.9346259, "lon": 75.833265, "tags": {"bus": "yes", "highway": "bus_stop", "name": "Joravar Singh Gate", "public_transport": "platform"}}, {"type": "node", "id": 8043797918, "lat": 26.9394182, "lon": 75.8370487, "tags": {"bus": "yes", "highway": "bus_stop", "name": "Govind Nagar", "public_transport": "platform"}}, {"type": "node", "id": 8043797919, "lat": 26.9401121, "lon": 75.8374986, "tags": {"bus": "yes", "highway": "bus_stop", "name": "Govind Nagar", "public_transport": "platform"}}, {"type": "node", "id": 8043797921, "lat": 26.9440494, "lon": 75.8396035, "tags": {"bus": "yes", "highway": "bus_stop", "name": "Ramgarh Mod", "public_transport": "platform"}}, {"type": "node", "id": 8043890744, "lat": 26.9536509, "lon": 75.8421694, "tags": {"bus": "yes", "highway": "bus_stop", "name": "Jal Mahal", "public_transport": "platform"}}, {"type": "node", "id": 8043890745, "lat": 26.9536728, "lon": 75.842333, "tags": {"bus": "yes", "highway": "bus_stop", "name": "Jal Mahal", "public_transport": "platform"}}, {"type": "node", "id": 8043890746, "lat": 26.9561107, "lon": 75.8430089, "tags": {"bus": "yes", "highway": "bus_stop", "name": "Shahpura Bagh", "public_transport": "platform"}}, {"type": "node", "id": 8043890747, "lat": 26.9564529, "lon": 75.8433062, "tags": {"bus": "yes", "highway": "bus_stop", "name": "Shahpura Bagh", "public_transport": "platform"}}, {"type": "node", "id": 8043890758, "lat": 26.9604462, "lon": 75.8448872, "tags": {"bus": "yes", "highway": "bus_stop", "name": "Air Force School", "public_transport": "platform"}}, {"type": "node", "id": 8043890759, "lat": 26.961207, "lon": 75.8452833, "tags": {"bus": "yes", "highway": "bus_stop", "name": "Air Force School", "public_transport": "platform"}}, {"type": "node", "id": 8068694587, "lat": 26.8619936, "lon": 75.8067199, "tags": {"bus": "yes", "highway": "bus_stop", "name": "Mahaveer Cancer Hospital", "public_transport": "platform"}}, {"type": "node", "id": 8068694588, "lat": 26.8623086, "lon": 75.8066949, "tags": {"bus": "yes", "highway": "bus_stop", "name": "Mahaveer Cancer Hospital", "public_transport": "platform"}}, {"type": "node", "id": 8068694596, "lat": 26.8655326, "lon": 75.8075078, "tags": {"bus": "yes", "highway": "bus_stop", "name": "MNIT Jaipur", "public_transport": "platform"}}, {"type": "node", "id": 8068694597, "lat": 26.8649852, "lon": 75.8075331, "tags": {"bus": "yes", "highway": "bus_stop", "name": "MNIT Jaipur", "public_transport": "platform"}}, {"type": "node", "id": 8068694599, "lat": 26.8679028, "lon": 75.8050333, "tags": {"bus": "yes", "highway": "bus_stop", "name": "Dainik Bhaskar", "public_transport": "platform"}}, {"type": "node", "id": 8068694600, "lat": 26.867781, "lon": 75.8050347, "tags": {"bus": "yes", "highway": "bus_stop", "name": "Dainik Bhaskar", "public_transport": "platform"}}, {"type": "node", "id": 8075691732, "lat": 26.8702177, "lon": 75.8003479, "tags": {"bus": "yes", "highway": "bus_stop", "name": "Bajaj Nagar Enclave", "public_transport": "platform"}}, {"type": "node", "id": 8075691733, "lat": 26.8733325, "lon": 75.7996352, "tags": {"bus": "yes", "highway": "bus_stop", "name": "Gandhi Nagar Railway station", "public_transport": "platform"}}, {"type": "node", "id": 8075691853, "lat": 26.9137985, "lon": 75.8088916, "tags": {"bus": "yes", "highway": "bus_stop", "name": "Xavier School", "public_transport": "platform"}}, {"type": "node", "id": 8075691854, "lat": 26.9143563, "lon": 75.8060837, "tags": {"bus": "yes", "highway": "bus_stop", "name": "Ahinsa Circle", "public_transport": "platform"}}, {"type": "node", "id": 8075691872, "lat": 26.916871, "lon": 75.8005268, "tags": {"bus": "yes", "highway": "bus_stop", "name": "Goverment Hostel", "public_transport": "platform"}}, {"type": "node", "id": 8075691873, "lat": 26.9188762, "lon": 75.7982521, "tags": {"bus": "yes", "highway": "bus_stop", "name": "Ganpati plaza", "public_transport": "stop_position"}}, {"type": "node", "id": 8075691874, "lat": 26.9189549, "lon": 75.7983159, "tags": {"bus": "yes", "highway": "bus_stop", "name": "Ganpati plaza", "public_transport": "stop_position"}}, {"type": "node", "id": 8075691875, "lat": 26.916275, "lon": 75.8102777, "tags": {"bus": "yes", "highway": "bus_stop", "name": "Paach Batti", "public_transport": "platform"}}, {"type": "node", "id": 8075691893, "lat": 26.9208932, "lon": 75.7939608, "tags": {"bus": "yes", "highway": "bus_stop", "name": "Khasa kothi", "public_transport": "platform"}}, {"type": "node", "id": 8075691894, "lat": 26.9208965, "lon": 75.7940573, "tags": {"bus": "yes", "highway": "bus_stop", "public_transport": "platform"}}, {"type": "node", "id": 8076910251, "lat": 26.9260247, "lon": 75.7935615, "tags": {"bus": "yes", "highway": "bus_stop", "name": "Jaipur Collectorate", "public_transport": "platform"}}, {"type": "node", "id": 8076910252, "lat": 26.9264591, "lon": 75.7921648, "tags": {"bus": "yes", "highway": "bus_stop", "name": "Collectorate", "public_transport": "platform"}}, {"type": "node", "id": 8076911202, "lat": 26.9316227, "lon": 75.7852496, "tags": {"bus": "yes", "highway": "bus_stop", "name": "Sapta Shakti Canteen", "public_transport": "platform"}}, {"type": "node", "id": 8076911203, "lat": 26.9315272, "lon": 75.7852447, "tags": {"bus": "yes", "highway": "bus_stop", "name": "Sapta Shakti Canteen", "public_transport": "platform"}}, {"type": "node", "id": 8076911204, "lat": 26.9381948, "lon": 75.7857996, "tags": {"bus": "yes", "highway": "bus_stop", "name": "Panipech Circle", "public_transport": "platform"}}, {"type": "node", "id": 8076911207, "lat": 26.9428168, "lon": 75.7619105, "tags": {"bus": "yes", "highway": "bus_stop", "name": "Lata Circle", "public_transport": "platform"}}, {"type": "node", "id": 8076911245, "lat": 26.9427224, "lon": 75.761877, "tags": {"bus": "yes", "highway": "bus_stop", "name": "Lata Circle", "public_transport": "platform"}}, {"type": "node", "id": 8076911246, "lat": 26.942986, "lon": 75.7551018, "tags": {"bus": "yes", "highway": "bus_stop", "name": "Shilp Colony/ Medical Center", "public_transport": "platform"}}, {"type": "node", "id": 8076911247, "lat": 26.9437883, "lon": 75.7464719, "tags": {"bus": "yes", "highway": "bus_stop", "name": "Boring Chauraha", "public_transport": "platform"}}, {"type": "node", "id": 8076911248, "lat": 26.9443886, "lon": 75.7439081, "tags": {"bus": "yes", "highway": "bus_stop", "name": "Kanta Jothwara", "public_transport": "platform"}}, {"type": "node", "id": 8076911249, "lat": 26.9443196, "lon": 75.7438778, "tags": {"bus": "yes", "highway": "bus_stop", "name": "Kanta Jothwara", "public_transport": "platform"}}, {"type": "node", "id": 8076911251, "lat": 26.9409823, "lon": 75.7431527, "tags": {"bus": "yes", "highway": "bus_stop", "name": "Maharana Pratap Chauraha", "public_transport": "platform"}}, {"type": "node", "id": 8076911253, "lat": 26.9343057, "lon": 75.7434588, "tags": {"bus": "yes", "highway": "bus_stop", "name": "Lal Mandir", "public_transport": "platform"}}, {"type": "node", "id": 8076911257, "lat": 26.9334361, "lon": 75.7363516, "tags": {"bus": "yes", "highway": "bus_stop", "name": "Kirni Fatak", "public_transport": "platform"}}, {"type": "node", "id": 8083908944, "lat": 26.9025066, "lon": 75.7862409, "tags": {"bus": "yes", "highway": "bus_stop", "name": "Ram Mandir", "public_transport": "platform"}}, {"type": "node", "id": 8119003879, "lat": 26.916765, "lon": 75.800505, "tags": {"bus": "yes", "highway": "bus_stop", "name": "Goverment Hostel", "public_transport": "platform"}}, {"type": "node", "id": 8125106434, "lat": 26.8840392, "lon": 75.7398292, "tags": {"bus": "yes", "bus_routes": "7, 9B", "highway": "bus_stop", "name": "Vardhaman Nagar", "public_transport": "platform"}}, {"type": "node", "id": 8125106446, "lat": 26.9059523, "lon": 75.8403095, "tags": {"bus": "yes", "highway": "bus_stop", "name": "Sethi Colony", "public_transport": "platform"}}, {"type": "node", "id": 8125106447, "lat": 26.9061812, "lon": 75.840259, "tags": {"bus": "yes", "highway": "bus_stop", "name": "Sethi Colony", "public_transport": "platform"}}, {"type": "node", "id": 8137399225, "lat": 26.9366297, "lon": 75.7566487, "tags": {"bus": "yes", "highway": "bus_stop", "name": "Khatipura Fatak", "public_transport": "platform"}}, {"type": "node", "id": 8137399226, "lat": 26.9365835, "lon": 75.7568075, "tags": {"bus": "yes", "highway": "bus_stop", "name": "Khatipura Fatak", "public_transport": "platform"}}, {"type": "node", "id": 8137399227, "lat": 26.9316, "lon": 75.7514103, "tags": {"bus": "yes", "highway": "bus_stop", "name": "Khatipura Pulia", "public_transport": "platform"}}, {"type": "node", "id": 8137399232, "lat": 26.914757, "lon": 75.7384555, "tags": {"bus": "yes", "highway": "bus_stop", "name": "National Handloom", "public_transport": "platform"}}, {"type": "node", "id": 8137399235, "lat": 26.9112015, "lon": 75.7438267, "tags": {"bus": "yes", "bus_routes": "14, Mini 38, 18", "highway": "bus_stop", "name": "Gupta Store", "public_transport": "platform"}}, {"type": "node", "id": 8137399237, "lat": 26.9058151, "lon": 75.752556, "tags": {"bus": "yes", "highway": "bus_stop", "name": "Vijay Dwar", "public_transport": "platform"}}, {"type": "node", "id": 8137399239, "lat": 26.902601, "lon": 75.7534667, "tags": {"bus": "yes", "highway": "bus_stop", "name": "Vidyut Nagar Bus Stop", "public_transport": "platform"}}, {"type": "node", "id": 8137399240, "lat": 26.9031103, "lon": 75.7535891, "tags": {"bus": "yes", "highway": "bus_stop", "name": "Vidyut Nagar Bus Stop", "public_transport": "platform"}}, {"type": "node", "id": 8137399241, "lat": 26.9013032, "lon": 75.7832123, "tags": {"bus": "yes", "highway": "bus_stop", "name": "Nandpuri Mod", "public_transport": "platform"}}, {"type": "node", "id": 8137399242, "lat": 26.901609, "lon": 75.7833521, "tags": {"bus": "yes", "highway": "bus_stop", "name": "Nandpuri Mod", "public_transport": "platform"}}, {"type": "node", "id": 8137399244, "lat": 26.8990488, "lon": 75.7998844, "tags": {"bus": "yes", "highway": "bus_stop", "name": "High court circle", "public_transport": "platform"}}, {"type": "node", "id": 8137399247, "lat": 26.8952886, "lon": 75.8077402, "tags": {"bus": "yes", "highway": "bus_stop", "name": "Rambagh Circle", "public_transport": "platform"}}, {"type": "node", "id": 8137399286, "lat": 26.9152105, "lon": 75.8235805, "tags": {"bus": "yes", "highway": "bus_stop", "name": "Sanganeri Gate", "public_transport": "platform"}}, {"type": "node", "id": 8137399288, "lat": 26.9072657, "lon": 75.8404101, "tags": {"bus": "yes", "highway": "bus_stop", "name": "New Transport Nagar", "public_transport": "platform"}}, {"type": "node", "id": 8137399289, "lat": 26.9011462, "lon": 75.8434368, "tags": {"bus": "yes", "highway": "bus_stop", "name": "Ghat ki Guni Circle", "public_transport": "platform"}}, {"type": "node", "id": 8137399293, "lat": 26.8928184, "lon": 75.8672142, "tags": {"bus": "yes", "highway": "bus_stop", "name": "Dayal Hospital", "public_transport": "platform"}}, {"type": "node", "id": 8175950480, "lat": 26.9467263, "lon": 75.8400912, "tags": {"bus": "yes", "highway": "bus_stop", "name": "Karbala", "public_transport": "platform"}}, {"type": "node", "id": 8568606142, "lat": 26.8985445, "lon": 75.7592028, "tags": {"bus": "yes", "highway": "bus_stop", "name": "DCM", "public_transport": "platform"}}, {"type": "node", "id": 8643260432, "lat": 26.9257784, "lon": 75.807802, "tags": {"bus": "yes", "highway": "bus_stop", "name": "Chandpole Metro Station", "public_transport": "platform"}}, {"type": "node", "id": 10749905306, "lat": 26.9201609, "lon": 75.7940976, "tags": {"highway": "bus_stop"}}, {"type": "node", "id": 10756034635, "lat": 26.9642415, "lon": 75.7275825, "tags": {"bus": "yes", "highway": "bus_stop", "name": "Nath ji ki thadi", "name:hi": "\u0928\u093e\u0925 \u091c\u0940 \u0915\u0940 \u0925\u0921\u093c\u0940", "public_transport": "platform", "ref": "31", "shelter": "yes"}}, {"type": "node", "id": 10959797674, "lat": 26.9517206, "lon": 75.7018538, "tags": {"bus": "yes", "highway": "bus_stop", "name": "GOVINDPURA MAIN BUS STAND", "public_transport": "platform"}}, {"type": "node", "id": 10959824946, "lat": 26.9547832, "lon": 75.6944401, "tags": {"bus": "yes", "highway": "bus_stop", "name": "MANGLAM CITY BUS STAND", "public_transport": "platform"}}, {"type": "node", "id": 10959824953, "lat": 26.9500361, "lon": 75.7108084, "tags": {"bus": "yes", "highway": "bus_stop", "name": "RAVAN GATE BUS STOP", "public_transport": "platform"}}, {"type": "node", "id": 10959824965, "lat": 26.9455947, "lon": 75.7323654, "tags": {"bus": "yes", "highway": "bus_stop", "name": "PULIA BUS STAND", "public_transport": "platform"}}]}